pitch,roll,yaw,vgx,vgy,vgz,templ,temph,tof,h,bat,baro,time,agx,agy,agz,timech
1,-1,-172,0,0,0,80,83,10,0,79,92.1,264,14,27,-992,13.669
1,-1,-172,0,0,0,80,83,10,0,79,92.13,264,16,28,-993,0.001
1,-1,-172,0,0,0,80,82,10,0,79,92.33,264,17,28,-993,0.735
1,-1,-172,0,0,0,80,83,10,0,79,92.07,264,14,26,-993,0.254
1,-1,-172,0,0,0,80,82,10,0,79,92.3,264,15,27,-994,0
1,-1,-172,0,0,0,80,82,10,0,79,92.28,264,14,27,-991,0.001
1,-1,-172,0,0,0,80,82,10,0,79,92.27,264,14,29,-993,0
1,-1,-172,0,0,0,81,83,10,0,79,92.16,264,14,27,-993,0
1,-1,-172,0,0,0,80,83,10,0,79,92.13,264,16,28,-993,0.001
1,-1,-172,0,0,0,81,83,10,0,79,92.21,264,16,27,-993,0
1,-1,-172,0,0,0,81,83,10,0,79,92.16,264,15,27,-995,0.028
1,-1,-172,0,0,0,81,83,10,0,79,92.26,264,16,27,-994,0.102
1,-1,-172,0,0,0,81,83,10,0,79,92.17,264,14,28,-995,0.102
1,-1,-172,0,0,0,81,83,10,0,79,92.17,264,15,27,-992,0.102
1,-1,-172,0,0,0,81,83,10,0,79,92.17,264,15,27,-995,0.102
1,-1,-172,0,0,0,80,84,10,0,79,92.17,264,21,23,-994,0.102
1,-1,-172,0,0,0,80,84,10,0,79,92.17,264,1,35,-998,0.102
1,-1,-172,0,0,0,80,84,10,0,79,92.17,264,18,38,-990,0.102
1,-1,-172,0,0,0,80,84,10,0,79,92.17,264,19,27,-988,0.102
1,-1,-172,0,0,0,80,84,10,0,79,92.17,264,9,31,-995,0.102
1,-1,-172,0,0,0,80,84,10,0,79,92.17,264,25,26,-992,0.102
1,-1,-172,0,0,0,80,84,10,0,79,92.17,265,10,27,-994,0.101
1,-1,-172,0,0,0,80,84,10,0,79,92.17,265,18,26,-994,0.103
1,-1,-172,0,0,0,80,84,10,0,79,92.17,265,18,25,-994,0.101
1,-1,-172,0,0,0,80,84,10,0,79,92.17,265,10,35,-996,0.051
1,-1,-172,0,0,0,81,83,10,0,79,92.17,265,15,25,-994,0.154
1,-1,-172,0,0,0,81,83,10,0,79,92.17,265,13,30,-1002,0.051
1,-1,-172,0,0,0,81,83,10,0,79,92.17,265,13,28,-991,0.102
1,-1,-172,0,0,0,81,83,10,0,79,92.17,265,13,24,-1002,0.102
1,-1,-172,0,0,0,81,83,10,0,79,92.17,265,13,32,-998,0.102
0,-1,-172,0,0,0,81,83,10,0,79,92.17,265,19,30,-1004,0.102
0,-1,-173,0,0,0,81,83,10,0,79,92.17,266,33,29,-999,0.101
1,-2,-173,0,0,0,81,83,10,0,79,92.17,266,25,49,-1072,0.103
3,-5,-174,0,0,0,81,83,10,0,79,92.17,266,42,39,-1153,0.102
10,-13,-179,0,0,-2,81,83,10,0,79,92.17,266,-4,-32,-1526,0.101
6,-9,-178,0,0,-4,81,83,11,0,79,92.17,266,66,22,-1219,0.102
-2,0,-176,0,0,-5,81,83,19,0,79,92.43,266,55,36,-1067,0.102
0,1,-176,0,0,-6,81,83,26,0,79,92.17,266,8,-3,-1094,0.103
0,0,-176,0,0,-7,81,83,35,10,79,92.28,266,35,8,-1068,0.101
0,0,-176,0,0,-8,81,83,43,20,79,92.27,266,19,-4,-1021,0.102
0,0,-176,0,0,-8,81,83,54,30,79,92.53,266,8,2,-988,0.102
0,0,-176,0,0,-8,81,83,63,40,79,92.57,267,0,4,-969,0.102
0,0,-176,0,0,-7,81,83,72,40,79,93.03,267,17,6,-960,0.102
0,0,-176,0,0,-7,81,83,81,50,79,92.62,267,26,-15,-970,0.102
0,1,-176,0,4,-7,81,83,90,60,79,92.92,267,40,-11,-945,0.102
-2,6,-176,0,3,-6,81,83,99,70,79,92.9,267,25,9,-913,0.103
-1,6,-176,0,2,-6,81,83,105,80,79,93.12,267,24,-8,-868,0.102
0,5,-176,0,1,-5,81,83,112,90,79,93.26,267,27,-4,-878,0.102
0,3,-176,0,1,-3,81,83,116,90,79,93.31,267,26,-17,-888,0.102
0,2,-176,0,1,-2,81,83,120,100,79,93.32,267,22,-24,-906,0.102
1,2,-176,0,0,-2,81,83,122,100,79,93.18,267,21,-11,-909,0.102
0,2,-176,0,0,-1,81,83,126,110,79,93.08,268,5,-16,-918,0.102
0,2,-176,0,0,-1,81,83,127,110,79,93.02,268,24,-7,-949,0.102
1,2,-176,0,0,0,81,83,129,110,79,93.22,268,29,-14,-950,0.102
1,1,-176,0,0,0,81,83,130,110,79,93.46,268,21,-19,-977,0.102
1,1,-176,0,0,0,82,83,129,110,79,93.43,268,16,-17,-966,0.104
1,1,-176,0,0,0,82,83,130,110,79,93.42,268,25,-25,-988,0.101
1,1,-176,0,0,0,82,83,130,110,79,93.11,268,17,-25,-961,0.102
1,1,-176,0,0,0,82,83,130,110,79,93.15,268,12,-20,-996,0.102
1,1,-176,0,0,0,82,83,131,110,79,93.41,268,6,-32,-980,0.102
1,1,-176,0,0,0,82,83,130,110,79,93.23,268,19,-10,-989,0.102
1,1,-176,0,0,0,82,83,130,110,79,93.25,269,31,-2,-1000,0.051
0,0,-176,0,0,0,82,83,130,110,79,93.19,269,20,-18,-1001,0.102
1,0,-176,0,0,0,82,83,130,110,79,93.14,269,29,-6,-976,0.102
1,1,-176,0,0,0,82,83,131,110,79,93.23,269,25,-8,-1008,0.102
1,0,-176,0,0,0,81,83,130,110,79,93.34,269,19,-9,-996,0.102
1,0,-176,0,0,0,81,83,130,110,79,93.55,269,29,-19,-1013,0.102
1,0,-176,0,0,0,81,83,130,110,79,93.59,269,20,-17,-972,0.102
1,0,-176,0,0,0,81,83,130,110,79,92.93,269,25,-26,-1002,0.102
1,0,-176,0,0,0,81,83,130,110,79,93.42,269,30,-12,-996,0.102
1,0,-176,0,0,0,81,83,130,110,79,93.06,269,25,-21,-981,0.102
1,0,-176,0,0,0,81,83,129,110,79,93.36,270,36,-23,-999,0.102
1,0,-176,0,0,0,81,83,129,110,79,93.22,270,45,-19,-1007,0.102
1,0,-176,0,0,0,81,83,129,110,79,93.45,270,26,-10,-993,0.102
1,0,-176,0,0,0,81,83,129,110,79,93.47,270,27,-4,-1012,0.102
0,0,-175,0,0,0,81,84,128,110,79,93.43,270,20,-14,-1138,0.102
0,0,-175,0,0,-2,81,84,129,110,79,93.34,270,-1,-38,-1230,0.102
0,0,-175,0,0,-4,81,84,132,110,79,93.35,270,1,-3,-1129,0.102
0,0,-175,0,0,-5,81,84,135,120,79,93.27,270,3,-22,-1142,0.102
0,0,-175,0,0,-7,81,84,142,120,79,93.57,270,5,2,-1116,0.102
0,0,-176,0,0,-8,81,84,151,130,79,93.65,271,-1,-14,-1071,0.102
0,0,-176,0,0,-9,81,84,159,140,79,93.62,271,5,-12,-1052,0.102
0,0,-176,0,0,-9,81,84,169,150,79,93.69,271,17,-18,-1030,0.102
0,0,-176,0,0,-9,81,84,179,160,79,94.15,271,14,-6,-994,0.102
0,0,-176,0,0,-9,81,84,188,170,79,93.8,271,27,-22,-986,0.102
0,0,-176,0,0,-9,80,83,199,180,79,94.02,271,25,-9,-972,0.102
1,0,-176,0,0,-9,80,83,209,190,79,93.93,271,29,-21,-966,0.102
1,0,-176,0,0,-8,80,83,218,200,79,94.15,271,12,-25,-936,0.102
1,0,-176,0,0,-8,80,83,227,210,79,94.08,271,50,-2,-943,0.102
1,1,-176,0,0,-7,80,83,237,220,79,94.16,271,50,10,-928,0.102
1,0,-176,0,0,-7,80,83,244,220,79,94.36,272,54,-4,-913,0.102
2,0,-176,0,0,-6,80,83,250,230,79,94.49,272,53,12,-943,0.102
2,0,-176,0,0,-6,80,83,258,240,79,94.71,272,57,0,-956,0.102
2,0,-176,0,0,-5,80,83,260,240,79,94.6,272,65,4,-954,0.102
2,0,-176,0,0,-5,80,83,270,250,79,94.76,272,47,26,-932,0.102
2,0,-176,0,0,-4,80,83,277,250,79,94.57,272,43,8,-947,0.102
2,0,-176,0,0,-4,80,83,278,260,79,94.78,272,63,11,-980,0.103
2,0,-176,0,0,-3,80,83,285,260,79,94.68,272,44,9,-969,0.101
2,0,-176,0,0,-3,80,83,289,260,79,94.68,272,59,-6,-976,0.102
2,0,-176,0,0,-3,80,83,290,270,79,94.68,272,69,8,-984,0.102
3,0,-176,0,0,-3,80,83,296,270,79,94.75,273,88,25,-971,0.102
3,0,-176,0,0,-2,80,83,299,270,79,94.67,273,72,2,-978,0.102
3,0,-176,0,0,-2,80,83,299,280,79,95.02,273,78,14,-975,0.102
3,0,-176,0,0,-2,80,83,305,280,79,94.82,273,64,6,-967,0.102
3,0,-176,0,0,-2,80,83,304,280,79,94.89,273,72,19,-996,0.051
3,0,-176,0,0,-2,81,83,306,280,79,95.05,273,84,-8,-993,0.153
3,0,-176,0,0,-1,81,83,310,290,79,94.66,273,74,-6,-978,0.052
3,0,-176,0,0,-1,81,83,308,290,79,94.87,273,86,-9,-1007,0.102
4,0,-176,-1,0,-1,81,83,314,290,79,94.69,273,83,2,-989,0.102
4,0,-176,0,0,-1,81,83,312,290,79,94.79,273,89,3,-976,0.102
4,0,-176,0,0,-1,81,83,316,290,79,95.26,274,93,19,-990,0.102
5,0,-176,0,0,-1,81,83,322,290,79,94.93,274,73,25,-964,0.102
5,0,-176,0,0,-1,81,83,325,300,79,94.96,274,82,12,-989,0.102
4,-1,-176,0,0,-1,81,83,321,300,79,95.25,274,77,22,-964,0.102
4,-1,-176,0,0,-1,81,83,322,300,79,94.83,274,99,18,-994,0.102
4,-1,-176,0,0,-1,81,82,324,300,79,95.41,274,95,22,-979,0.102
5,-1,-176,0,0,0,81,82,326,300,79,94.9,274,88,11,-973,0.102
4,-1,-175,0,0,0,81,82,326,300,79,95.05,274,73,9,-957,0.102
4,0,-175,0,0,0,81,82,327,300,79,95.33,274,88,28,-967,0.102
4,0,-175,0,0,0,81,82,326,300,79,95.31,274,72,42,-977,0.102
3,-1,-176,0,0,0,81,82,324,300,79,95.09,275,75,60,-971,0.103
4,-2,-176,0,0,0,81,82,326,300,79,95.21,275,87,56,-987,0.101
3,-2,-176,0,0,0,81,82,324,300,79,95.02,275,89,53,-968,0.102
3,-2,-176,0,0,0,81,82,324,300,79,95,275,89,43,-1002,0.102
4,-2,-176,0,0,0,81,82,324,300,79,95.09,275,74,49,-1002,0.102
4,-3,-176,0,0,0,80,82,334,300,79,95.1,275,82,61,-1002,0.102
3,-3,-176,0,0,0,80,82,325,300,79,94.96,275,80,51,-967,0.102
3,-2,-176,0,0,0,80,82,328,300,79,95.07,275,74,29,-975,0.102
3,-2,-176,0,0,0,80,82,326,300,79,94.98,275,91,33,-982,0.102
3,-3,-176,0,0,0,80,82,323,300,79,94.92,275,65,30,-983,0.102
3,-3,-176,0,0,0,80,82,319,300,79,94.99,276,82,45,-1024,0.102
3,-3,-176,0,0,0,80,82,320,300,79,95.13,276,64,45,-971,0.102
3,-2,-176,0,0,0,80,82,320,300,79,95.16,276,84,40,-995,0.102
4,-2,-176,0,0,0,80,82,323,300,79,94.88,276,109,61,-1127,0.102
5,-2,-176,0,0,-1,80,82,320,300,79,95.36,276,90,63,-1128,0.102
5,-2,-176,0,0,-3,80,83,333,300,79,95.38,276,79,65,-1161,0.102
4,-2,-176,0,0,-4,80,83,337,310,79,95,276,111,63,-1165,0.102
4,-3,-176,0,0,-6,80,83,339,310,79,95.22,276,67,38,-1128,0.102
4,-3,-176,0,0,-7,80,83,340,320,79,95.2,276,82,44,-1076,0.102
4,-3,-176,0,0,-8,80,83,356,330,79,95.64,276,91,37,-1026,0.102
5,-3,-176,0,0,-9,80,83,364,340,79,95.63,277,114,51,-1056,0.102
5,-3,-176,0,0,-9,80,83,380,350,79,95.57,277,116,47,-992,0.102
5,-3,-176,0,0,-9,80,83,387,360,79,95.67,277,113,56,-990,0.051
5,-3,-176,0,0,-9,80,83,399,370,79,95.4,277,85,50,-952,0.102
5,-2,-176,0,0,-9,80,83,404,380,79,95.95,277,113,47,-934,0.102
4,-3,-176,0,0,-9,80,82,418,380,79,96.01,277,89,38,-948,0.102
5,-3,-176,0,0,-8,80,82,419,390,79,96.06,277,120,40,-980,0.102
4,-3,-176,0,0,-8,80,82,431,400,79,96.17,277,110,38,-950,0.103
3,-2,-176,0,0,-8,80,82,449,410,79,96.39,277,104,23,-933,0.102
4,-2,-176,0,0,-7,80,82,459,420,79,96.31,277,92,40,-937,0.102
5,-1,-176,0,0,-6,80,82,467,420,79,96.23,278,104,41,-950,0.102
5,-1,-176,0,0,-6,80,82,470,430,79,96.24,278,86,49,-941,0.102
4,-1,-176,0,0,-5,80,82,482,440,78,96.33,278,91,42,-940,0.102
4,-1,-176,0,0,-5,80,82,489,440,78,96.22,278,92,79,-923,0.102
4,-1,-176,0,0,-4,80,82,502,450,78,96.43,278,83,72,-934,0.102
3,-1,-176,0,0,-4,80,82,494,450,78,96.83,278,65,69,-938,0.102
3,-2,-176,0,0,-3,80,82,500,460,78,96.84,278,71,71,-983,0.102
3,-3,-176,0,-1,-3,80,82,504,460,78,96.61,278,83,93,-949,0.102
3,-5,-176,0,-1,-4,80,82,522,470,78,96.94,278,79,74,-951,0.102
3,-6,-176,0,0,-3,80,82,525,480,78,96.74,278,76,78,-938,0.102
3,-5,-176,0,0,-3,80,82,525,480,78,97.08,279,52,91,-935,0.102
2,-5,-176,0,0,-3,80,82,517,480,78,96.92,279,63,91,-927,0.102
2,-5,-176,0,0,-2,80,82,524,490,78,97.02,279,76,76,-957,0.102
1,-5,-176,0,0,-2,80,82,533,490,78,96.97,279,52,99,-946,0.102
2,-5,-176,0,0,-1,80,82,538,490,78,96.84,279,40,82,-914,0.102
2,-5,-176,0,0,-1,79,82,525,490,78,96.87,279,66,74,-960,0.102
2,-5,-176,0,0,0,79,82,530,490,78,96.8,279,67,50,-961,0.102
2,-4,-176,0,0,0,79,82,531,500,78,96.85,279,87,48,-963,0.102
2,-3,-176,0,0,0,79,82,530,500,78,96.99,279,85,48,-981,0.102
3,-3,-176,0,0,0,79,82,535,500,78,96.89,279,97,48,-992,0.102
4,-3,-176,0,0,0,79,82,526,500,78,96.87,280,84,35,-976,0.102
4,-2,-176,0,0,0,79,82,537,490,78,96.96,280,85,42,-997,0.102
3,-2,-176,0,0,0,79,82,523,490,78,96.7,280,119,44,-979,0.102
3,-1,-176,0,0,0,79,82,527,490,78,97.07,280,90,53,-993,0.102
3,-1,-176,0,0,0,79,82,529,490,78,96.58,280,76,37,-1001,0.102
3,-1,-176,0,0,0,79,82,526,490,78,96.96,280,69,40,-985,0.102
3,-1,-176,0,0,0,79,82,533,490,78,96.91,280,99,15,-1007,0.102
3,-1,-176,0,0,0,79,82,543,490,78,97.13,280,83,36,-991,0.102
3,-1,-176,0,0,0,79,82,519,490,78,96.86,280,75,36,-963,0.102
3,-1,-176,0,0,0,79,82,535,490,78,97.09,280,93,33,-1006,0.102
3,-1,-176,0,0,0,79,82,525,490,78,96.67,281,76,38,-989,0.102
3,-1,-176,0,0,0,79,82,527,490,78,97.11,281,79,26,-965,0.102
3,-1,-176,0,0,0,79,82,530,490,78,96.69,281,99,27,-983,0.102
4,-1,-176,0,0,0,79,82,541,490,78,96.77,281,74,37,-978,0.101
4,-1,-176,0,0,0,79,82,538,490,78,96.9,281,98,35,-976,0.103
5,-2,-176,0,0,0,79,82,548,490,78,96.73,281,87,36,-1181,0.102
6,-2,-176,0,0,-2,79,82,546,500,78,97.06,281,103,32,-1192,0.102
5,-1,-176,0,0,-4,79,82,541,500,78,97.27,281,103,26,-1156,0.051
4,0,-176,0,0,-6,79,82,548,510,78,97.23,281,93,44,-1116,0.101
4,0,-176,0,0,-7,79,82,559,510,78,97.29,281,101,24,-1083,0.104
4,-1,-176,0,0,-8,79,82,568,520,78,97.16,282,106,26,-1079,0.1
4,-1,-176,0,0,-9,79,82,574,530,78,97.46,282,100,48,-1024,0.102
4,-1,-176,0,0,-9,79,82,581,540,77,97.57,282,80,49,-973,0.102
4,-1,-176,0,0,-9,79,82,588,550,77,97.54,282,107,19,-966,0.102
4,-1,-176,0,0,-9,79,82,588,560,77,97.92,282,98,33,-971,0.102
4,-1,-176,0,0,-9,79,82,606,570,77,97.95,282,111,16,-971,0.102
3,-1,-176,0,0,-8,79,82,600,580,77,98.12,282,96,30,-969,0.102
4,-1,-176,0,0,-8,79,82,636,590,77,97.92,282,122,29,-935,0.102
4,-1,-176,0,0,-8,79,82,637,590,77,97.98,282,104,23,-933,0.102
4,-1,-176,0,0,-7,79,82,643,600,77,98.14,282,108,41,-940,0.102
4,-2,-176,0,0,-7,79,82,650,610,77,98.06,283,76,53,-912,0.103
4,-2,-176,0,0,-6,79,82,636,620,77,98.18,283,89,28,-943,0.101
4,-2,-176,0,0,-6,79,82,665,620,77,98.23,283,74,43,-950,0.102
3,-2,-176,0,0,-5,79,82,675,630,77,98.42,283,106,23,-951,0.102
4,-2,-176,0,0,-5,79,82,667,630,77,98.37,283,74,37,-943,0.102
5,-1,-176,0,0,-4,79,82,693,640,77,98.37,283,82,40,-956,0.102
5,-1,-176,0,0,-4,79,82,645,650,77,98.37,283,116,12,-945,0.102
5,-1,-176,0,0,-3,79,82,695,650,77,98.48,283,105,31,-947,0.102
4,-1,-176,0,0,-3,79,82,673,660,77,98.45,283,110,25,-952,0.102
5,-1,-176,0,0,-3,79,82,676,670,77,98.3,284,101,20,-925,0.102
5,0,-176,0,0,-2,79,82,708,670,77,98.79,284,88,28,-946,0.102
4,-1,-176,0,0,-2,79,82,676,670,77,98.93,284,78,40,-959,0.102
4,-1,-176,0,0,-2,79,82,705,670,77,98.77,284,80,40,-948,0.102
3,-2,-176,0,0,-1,79,82,721,680,77,98.79,284,68,32,-931,0.102
3,-2,-176,0,0,-1,79,82,702,680,77,98.68,284,104,36,-999,0.103
3,-2,-176,0,0,-1,79,82,717,680,77,98.99,284,99,57,-959,0.101
4,-2,-176,0,0,-1,79,82,700,680,77,98.71,284,89,24,-991,0.102
4,-2,-176,0,0,-1,79,82,714,680,77,98.8,284,90,51,-978,0.102
4,-1,-176,0,0,-1,79,82,708,680,77,98.87,284,92,60,-945,0.102
3,-2,-176,0,0,-1,79,82,710,680,77,98.67,285,92,47,-952,0.102
4,-2,-176,0,0,0,79,82,719,690,77,98.73,285,101,44,-982,0.103
4,-2,-176,0,0,0,79,82,706,690,77,98.76,285,103,32,-942,0.101
4,-2,-176,0,0,0,79,82,698,690,77,98.71,285,102,30,-972,0.051
5,-1,-176,0,0,0,79,82,697,690,77,98.65,285,104,37,-964,0.102
5,-1,-176,0,0,0,79,82,691,690,77,99,285,99,31,-950,0.102
6,-1,-176,0,0,0,79,82,705,690,77,98.79,285,91,23,-994,0.153
5,-2,-176,0,0,0,79,82,706,690,77,98.64,285,110,28,-999,0.102
5,-2,-176,0,0,0,79,82,735,690,77,98.95,285,124,32,-961,0.103
4,-2,-176,0,0,0,79,82,715,690,77,99,285,106,31,-1000,0.101
5,-2,-176,0,0,0,79,82,724,690,77,98.84,286,117,30,-983,0.103
5,-1,-176,0,0,0,79,82,712,690,77,98.65,286,103,56,-974,0.05
6,-1,-176,0,0,0,79,82,715,690,77,99.07,286,89,20,-976,0.102
6,-1,-176,0,0,0,79,82,700,690,76,98.61,286,112,29,-974,0.102
5,-1,-176,0,0,0,79,82,719,690,76,98.58,286,123,53,-975,0.102
5,-1,-176,0,0,0,79,82,739,690,76,98.8,286,100,23,-941,0.102
5,-1,-176,0,0,0,79,82,715,690,76,98.6,286,102,40,-915,0.102
5,-1,-176,0,0,1,79,82,706,690,76,98.54,286,106,29,-904,0.102
5,-1,-176,0,0,2,79,82,711,680,76,98.5,286,98,37,-879,0.102
5,-1,-176,0,0,3,79,82,690,680,76,98.68,286,119,14,-878,0.102
6,-1,-176,0,0,4,79,82,718,680,76,98.79,287,104,40,-875,0.103
7,-1,-176,0,0,5,79,82,709,670,76,98.51,287,104,43,-865,0.101
6,-1,-176,0,0,6,79,82,703,670,76,98.5,287,113,55,-892,0.102
6,-1,-176,0,0,7,79,82,702,660,76,98.21,287,96,34,-884,0.102
5,-2,-176,0,0,7,79,82,693,660,76,98.58,287,103,54,-905,0.102
5,-2,-176,0,0,8,79,82,684,650,76,98.49,287,93,41,-908,0.102
5,-2,-176,0,0,9,79,81,693,640,76,98.16,287,106,45,-966,0.102
6,-3,-176,0,0,9,79,81,664,630,76,98.2,287,117,55,-953,0.103
6,-3,-176,0,0,9,79,81,657,620,76,98.05,287,102,72,-962,0.101
7,-3,-176,0,0,9,79,81,654,610,76,97.96,287,116,78,-963,0.102
6,-3,-176,0,0,9,79,81,661,600,76,97.79,288,120,53,-978,0.102
6,-3,-176,0,0,9,79,81,624,590,76,97.91,288,106,44,-979,0.102
6,-3,-176,0,0,9,79,81,624,580,76,97.98,288,88,62,-973,0.102
5,-3,-176,0,0,9,79,81,624,570,76,97.72,288,117,69,-992,0.102
5,-3,-176,0,0,10,79,81,625,560,76,97.49,288,101,84,-978,0.104
5,-3,-176,0,0,10,79,81,602,550,76,97.36,288,103,58,-986,0.1
5,-4,-176,0,0,9,79,81,602,540,76,97.32,288,102,67,-977,0.102
5,-4,-176,0,0,10,79,81,575,530,76,97.31,288,100,79,-975,0.102
5,-4,-176,0,0,10,79,81,562,520,76,97.08,288,115,74,-979,0.103
4,-4,-176,0,0,10,79,81,561,510,76,97.06,288,76,79,-972,0.102
4,-4,-176,0,0,10,79,81,552,500,76,97.02,289,125,85,-1000,0.102
4,-4,-176,0,0,10,79,81,530,490,76,96.97,289,107,77,-991,0.102
4,-4,-176,0,0,10,79,81,524,480,76,96.62,289,113,58,-969,0.102
4,-4,-176,0,0,10,79,81,520,470,76,96.6,289,90,80,-973,0.102
4,-5,-176,0,0,10,79,81,510,460,76,96.36,289,96,102,-966,0.102
4,-5,-176,0,0,10,79,81,494,450,76,96.46,289,81,69,-970,0.102
4,-5,-176,0,0,10,79,81,495,440,76,96.49,289,98,78,-1012,0.102
4,-5,-176,0,0,10,79,81,482,430,76,96.51,289,89,88,-1012,0.102
4,-4,-176,0,0,10,79,81,466,420,76,96.43,289,77,83,-1016,0.051
3,-4,-176,0,0,10,79,81,455,410,76,96.15,289,98,77,-967,0.102
4,-4,-176,0,0,10,79,81,441,400,76,95.99,290,74,72,-979,0.102
4,-4,-176,0,0,10,79,81,439,390,76,96.05,290,77,76,-982,0.102
4,-4,-176,0,0,10,79,81,432,380,76,96.14,290,49,99,-987,0.102
4,-4,-176,0,0,10,79,81,404,370,76,95.97,290,79,74,-998,0.102
3,-4,-176,0,0,10,79,81,402,360,76,95.76,290,49,89,-961,0.102
4,-4,-176,0,0,10,79,81,392,350,76,95.31,290,76,78,-1005,0.102
4,-5,-176,0,0,10,79,81,382,340,76,95.44,290,84,82,-1016,0.102
3,-4,-176,0,0,9,79,81,366,330,76,95.29,290,66,64,-987,0.102
3,-5,-176,0,0,9,79,81,357,320,76,95.61,290,96,105,-995,0.102
3,-5,-176,0,0,9,79,81,349,310,76,95.12,290,53,100,-959,0.102
3,-5,-176,0,0,9,79,81,344,300,76,95.19,291,91,80,-993,0.102
3,-5,-176,0,0,10,79,81,330,290,76,95.26,291,87,71,-981,0.102
3,-5,-176,0,0,9,79,81,323,280,76,95.16,291,74,81,-983,0.102
3,-4,-176,0,0,9,79,81,316,270,76,94.76,291,86,97,-982,0.102
3,-4,-176,0,0,9,79,81,297,260,76,94.87,291,48,78,-973,0.102
3,-4,-176,0,0,9,79,81,284,250,76,94.18,291,79,103,-977,0.102
3,-4,-176,0,0,9,79,81,279,240,76,94.46,291,72,54,-1000,0.103
3,-4,-176,0,0,9,79,81,265,230,76,94.6,291,66,73,-982,0.102
4,-4,-176,0,0,9,79,81,258,220,76,94.31,291,64,84,-989,0.102
4,-4,-176,0,0,9,79,81,247,210,76,94.2,291,64,70,-972,0.102
4,-4,-176,0,0,9,79,81,234,200,76,94.04,292,62,74,-973,0.102
4,-4,-176,0,0,9,79,81,224,190,76,94.15,292,54,71,-997,0.102
4,-4,-176,0,0,9,79,81,213,180,76,93.71,292,65,65,-1000,0.102
4,-4,-176,0,0,10,79,81,201,170,76,93.72,292,43,55,-979,0.102
3,-3,-176,0,0,10,79,81,191,160,76,94.12,292,55,82,-965,0.102
3,-4,-176,0,0,10,79,81,181,150,76,93.65,292,48,58,-976,0.102
2,-4,-176,0,0,10,79,81,168,140,76,93.52,292,78,49,-986,0.102
2,-4,-176,0,0,10,79,81,158,130,76,93.43,292,46,61,-978,0.102
2,-3,-176,0,0,10,79,81,147,120,76,93.13,292,58,75,-1001,0.102
2,-3,-176,0,0,9,79,81,136,110,76,92.93,292,39,66,-984,0.102
3,-3,-176,0,0,10,79,81,125,100,76,93.15,293,52,77,-985,0.102
2,-2,-176,0,0,10,79,81,114,90,76,93.17,293,70,71,-1039,0.102
2,-3,-176,0,0,9,79,81,105,80,76,92.94,293,56,57,-1012,0.102
2,-3,-176,0,0,9,79,81,95,70,76,92.82,293,60,49,-1031,0.051
4,-3,-176,0,0,8,79,81,86,60,76,92.83,293,80,77,-1092,0.102
4,-3,-176,0,0,7,79,81,78,50,76,92.58,293,77,74,-1063,0.102
4,-3,-176,0,0,6,78,81,66,40,76,92.62,293,84,66,-1072,0.102
4,-3,-176,0,0,6,78,81,61,40,76,92.23,293,52,62,-1047,0.102
3,-3,-176,0,0,5,78,81,55,30,76,92.34,293,88,59,-1046,0.102
3,-3,-176,0,0,5,78,81,49,20,76,92.61,293,70,60,-1003,0.102
3,-3,-176,0,0,4,78,81,45,20,76,92.16,294,59,37,-1010,0.102
3,-2,-176,0,0,4,78,81,40,10,76,92.25,294,76,50,-1003,0.102
3,-2,-176,0,0,4,78,81,36,10,76,92.12,294,45,35,-953,0.102
3,-2,-176,0,0,4,78,81,31,10,76,91.79,294,76,38,-991,0.102
3,-2,-176,0,0,4,78,81,27,0,76,92.04,294,79,32,-1000,0.102
3,-1,-176,0,0,4,78,81,25,0,76,92.2,294,83,21,-980,0.102
3,-1,-176,0,0,4,77,80,20,0,76,91.75,294,70,30,-998,0.102
3,-1,-176,0,1,4,77,80,15,0,76,91.88,294,79,36,-983,0.102
4,0,-176,0,0,4,77,80,12,-10,76,91.36,294,43,22,-988,0.102
3,0,-176,0,0,4,77,80,10,-10,76,90.55,294,34,24,-1034,0.102
3,0,-176,0,0,4,77,80,10,-20,76,88.92,295,-16,17,-1107,0.102
0,1,-175,1,1,3,77,80,10,-20,76,89.66,295,379,229,-1576,0.102
3,0,-176,0,0,-1,77,80,10,-20,75,89.93,295,-7,-38,-855,0.102
1,0,-175,0,0,1,77,80,10,-20,75,89.92,295,-4,-6,-1011,0.101
0,0,-175,0,0,0,77,80,10,-20,75,90.12,295,47,-9,-1013,0.103
0,0,-175,0,0,0,77,80,10,-20,75,90.36,295,33,-7,-978,0.102
0,0,-175,0,0,0,79,81,10,-20,75,90.56,295,14,-6,-991,0.102
0,0,-175,0,0,0,79,81,10,-20,75,90.79,295,21,0,-1005,0.102
0,0,-175,0,0,0,79,81,10,-20,75,90.53,295,10,0,-986,0.102
0,0,-175,0,0,0,79,81,10,-20,75,90.87,295,3,-2,-978,0.102
0,0,-175,0,0,0,79,81,10,-20,75,91.23,296,-4,2,-988,0.102
0,0,-175,0,0,0,79,81,10,-20,75,91.32,296,-10,-7,-991,0.102
0,1,-175,0,0,0,79,81,10,0,75,91.94,296,-16,-21,-983,0.101
-1,1,-175,0,0,0,79,81,10,0,75,92.03,296,-21,-27,-1001,0.103
-1,1,-175,0,0,1,79,81,10,0,75,92.14,296,-16,-17,-991,0.102
-1,1,-175,0,0,0,79,81,10,0,75,92.17,296,-20,-31,-985,0.102
-1,1,-175,0,0,0,78,80,10,0,75,92.18,296,-8,-27,-998,0.102
-1,1,-175,0,0,0,78,80,10,0,75,92.1,296,-21,-33,-990,0.102
-1,1,-175,0,0,0,78,80,10,0,75,91.77,296,-19,-26,-993,0.102
-1,1,-175,0,0,0,78,80,10,0,75,92.27,296,-22,-28,-989,0.102
-1,1,-175,0,0,0,78,80,10,0,75,92.25,296,-26,-28,-986,0.102